{"businesses": [{"id": "TagKynG-OmMT14HcttAJbA", "alias": "wongs-cafe-daly-city", "name": "Wong's Cafe", "image_url": "https://s3-media2.fl.yelpcdn.com/bphoto/njtGqHRhRiaTx8Y5rM-Sow/o.jpg", "is_closed": false, "url": "https://www.yelp.com/biz/wongs-cafe-daly-city?adjust_creative=ouh4IKbijqzYfWjVqQPRnA&utm_campaign=yelp_api_v3&utm_medium=api_v3_business_search&utm_source=ouh4IKbijqzYfWjVqQPRnA", "review_count": 174, "categories": [{"alias": "chinese", "title": "Chinese"}], "rating": 4.0, "coordinates": {"latitude": 37.687931060791, "longitude": -122.460220336914}, "transactions": [], "price": "$", "location": {"address1": "1111 Hillside Blvd", "address2": "", "address3": "", "city": "Daly City", "zip_code": "94014", "country": "US", "state": "CA", "display_address": ["1111 Hillside Blvd", "Daly City, CA 94014"]}, "phone": "+16507568023", "display_phone": "(650) 756-8023", "distance": 869.6629738181565}, {"id": "PWyPGsi-vbbYbIKPvwnaQg", "alias": "suilys-cafe-daly-city", "name": "Suily's Cafe", "image_url": "https://s3-media1.fl.yelpcdn.com/bphoto/w7hwIOjGIKaJKskRM2lDTg/o.jpg", "is_closed": false, "url": "https://www.yelp.com/biz/suilys-cafe-daly-city?adjust_creative=ouh4IKbijqzYfWjVqQPRnA&utm_campaign=yelp_api_v3&utm_medium=api_v3_business_search&utm_source=ouh4IKbijqzYfWjVqQPRnA", "review_count": 189, "categories": [{"alias": "chinese", "title": "Chinese"}], "rating": 4.0, "coordinates": {"latitude": 37.6887, "longitude": -122.46682}, "transactions": [], "price": "$", "location": {"address1": "1 San Pedro Rd", "address2": "", "address3": "", "city": "Daly City", "zip_code": "94014", "country": "US", "state": "CA", "display_address": ["1 San Pedro Rd", "Daly City, CA 94014"]}, "phone": "+16507550343", "display_phone": "(650) 755-0343", "distance": 318.6869098693899}, {"id": "nyGpvtLGDWfsloFJyMxZMw", "alias": "fung-wah-restaurant-daly-city", "name": "Fung Wah Restaurant", "image_url": "https://s3-media2.fl.yelpcdn.com/bphoto/_ghQbEpRIecUnwg8s3psAw/o.jpg", "is_closed": false, "url": "https://www.yelp.com/biz/fung-wah-restaurant-daly-city?adjust_creative=ouh4IKbijqzYfWjVqQPRnA&utm_campaign=yelp_api_v3&utm_medium=api_v3_business_search&utm_source=ouh4IKbijqzYfWjVqQPRnA", "review_count": 149, "categories": [{"alias": "chinese", "title": "Chinese"}], "rating": 3.5, "coordinates": {"latitude": 37.6955168, "longitude": -122.4644324}, "transactions": [], "price": "$", "location": {"address1": "7007 Mission St", "address2": "", "address3": "", "city": "Daly City", "zip_code": "94014", "country": "US", "state": "CA", "display_address": ["7007 Mission St", "Daly City, CA 94014"]}, "phone": "+16507569957", "display_phone": "(650) 756-9957", "distance": 983.6960608516869}, {"id": "kn2iEL0S3UOPkdV4Cdtbyg", "alias": "koi-palace-daly-city", "name": "Koi Palace", "image_url": "https://s3-media3.fl.yelpcdn.com/bphoto/bR9LsB0PxLqaptqbfj6wQQ/o.jpg", "is_closed": false, "url": "https://www.yelp.com/biz/koi-palace-daly-city?adjust_creative=ouh4IKbijqzYfWjVqQPRnA&utm_campaign=yelp_api_v3&utm_medium=api_v3_business_search&utm_source=ouh4IKbijqzYfWjVqQPRnA", "review_count": 3177, "categories": [{"alias": "dimsum", "title": "Dim Sum"}, {"alias": "seafood", "title": "Seafood"}, {"alias": "cantonese", "title": "Cantonese"}], "rating": 3.5, "coordinates": {"latitude": 37.6659927368164, "longitude": -122.466835021973}, "transactions": ["pickup", "restaurant_reservation", "delivery"], "price": "$$", "location": {"address1": "365 Gellert Blvd", "address2": "", "address3": "", "city": "Daly City", "zip_code": "94015", "country": "US", "state": "CA", "display_address": ["365 Gellert Blvd", "Daly City, CA 94015"]}, "phone": "+16509929000", "display_phone": "(650) 992-9000", "distance": 2452.5294547035346}, {"id": "j5U9UjM_nPCsBLYv-PvTQA", "alias": "canton-dim-sum-and-seafood-restaurant-daly-city", "name": "Canton Dim Sum & Seafood Restaurant", "image_url": "https://s3-media2.fl.yelpcdn.com/bphoto/92MyErNxiVGzX9wYMfVyAQ/o.jpg", "is_closed": false, "url": "https://www.yelp.com/biz/canton-dim-sum-and-seafood-restaurant-daly-city?adjust_creative=ouh4IKbijqzYfWjVqQPRnA&utm_campaign=yelp_api_v3&utm_medium=api_v3_business_search&utm_source=ouh4IKbijqzYfWjVqQPRnA", "review_count": 110, "categories": [{"alias": "dimsum", "title": "Dim Sum"}, {"alias": "seafood", "title": "Seafood"}], "rating": 3.5, "coordinates": {"latitude": 37.691337, "longitude": -122.471498}, "transactions": [], "price": "$$", "location": {"address1": "250 90th St", "address2": "", "address3": null, "city": "Daly City", "zip_code": "94015", "country": "US", "state": "CA", "display_address": ["250 90th St", "Daly City, CA 94015"]}, "phone": "+16509941971", "display_phone": "(650) 994-1971", "distance": 397.4362154925334}, {"id": "_dri8gBrhWr0UMOHBWrtWQ", "alias": "jade-dragon-restaurant-daly-city-2", "name": "Jade Dragon Restaurant", "image_url": "https://s3-media1.fl.yelpcdn.com/bphoto/a731z5qBZzcu4cG2op2YGA/o.jpg", "is_closed": false, "url": "https://www.yelp.com/biz/jade-dragon-restaurant-daly-city-2?adjust_creative=ouh4IKbijqzYfWjVqQPRnA&utm_campaign=yelp_api_v3&utm_medium=api_v3_business_search&utm_source=ouh4IKbijqzYfWjVqQPRnA", "review_count": 192, "categories": [{"alias": "chinese", "title": "Chinese"}, {"alias": "chicken_wings", "title": "Chicken Wings"}], "rating": 3.5, "coordinates": {"latitude": 37.6940156, "longitude": -122.4716194}, "transactions": ["pickup", "delivery"], "price": "$", "location": {"address1": "2368 Junipero Serra Blvd", "address2": "", "address3": "", "city": "Daly City", "zip_code": "94015", "country": "US", "state": "CA", "display_address": ["2368 Junipero Serra Blvd", "Daly City, CA 94015"]}, "phone": "+16507568900", "display_phone": "(650) 756-8900", "distance": 691.3969193884196}, {"id": "lVVbDilYULBL1OZG_3hE9w", "alias": "skylines-cafe-daly-city", "name": "Skyline's Cafe", "image_url": "https://s3-media2.fl.yelpcdn.com/bphoto/sGvfgaG583cJjzigU83uLQ/o.jpg", "is_closed": false, "url": "https://www.yelp.com/biz/skylines-cafe-daly-city?adjust_creative=ouh4IKbijqzYfWjVqQPRnA&utm_campaign=yelp_api_v3&utm_medium=api_v3_business_search&utm_source=ouh4IKbijqzYfWjVqQPRnA", "review_count": 383, "categories": [{"alias": "chinese", "title": "Chinese"}, {"alias": "cafes", "title": "Cafes"}], "rating": 3.0, "coordinates": {"latitude": 37.682094731985, "longitude": -122.487398886972}, "transactions": [], "price": "$", "location": {"address1": "87 Skyline Plz", "address2": "", "address3": "", "city": "Daly City", "zip_code": "94015", "country": "US", "state": "CA", "display_address": ["87 Skyline Plz", "Daly City, CA 94015"]}, "phone": "+16509911117", "display_phone": "(650) 991-1117", "distance": 1645.3758262540912}, {"id": "iULpNYgVWiR-Fxd6BH37YQ", "alias": "dim-sum-king-daly-city", "name": "Dim Sum King", "image_url": "https://s3-media2.fl.yelpcdn.com/bphoto/UnWPI2DSalOhAC65-euPGg/o.jpg", "is_closed": false, "url": "https://www.yelp.com/biz/dim-sum-king-daly-city?adjust_creative=ouh4IKbijqzYfWjVqQPRnA&utm_campaign=yelp_api_v3&utm_medium=api_v3_business_search&utm_source=ouh4IKbijqzYfWjVqQPRnA", "review_count": 1109, "categories": [{"alias": "dimsum", "title": "Dim Sum"}], "rating": 3.5, "coordinates": {"latitude": 37.6818810600468, "longitude": -122.487360336436}, "transactions": ["pickup", "delivery"], "price": "$$", "location": {"address1": "99 Skyline Plz", "address2": null, "address3": "", "city": "Daly City", "zip_code": "94015", "country": "US", "state": "CA", "display_address": ["99 Skyline Plz", "Daly City, CA 94015"]}, "phone": "+16507558128", "display_phone": "(650) 755-8128", "distance": 1651.7413970267385}, {"id": "viM34nLEESR4cjFPbafbKw", "alias": "pop-kitchen-daly-city-5", "name": "Pop Kitchen", "image_url": "https://s3-media4.fl.yelpcdn.com/bphoto/xC1x-ZrNGKLgOyZ7xcdxHg/o.jpg", "is_closed": false, "url": "https://www.yelp.com/biz/pop-kitchen-daly-city-5?adjust_creative=ouh4IKbijqzYfWjVqQPRnA&utm_campaign=yelp_api_v3&utm_medium=api_v3_business_search&utm_source=ouh4IKbijqzYfWjVqQPRnA", "review_count": 174, "categories": [{"alias": "seafood", "title": "Seafood"}, {"alias": "hotpot", "title": "Hot Pot"}, {"alias": "dimsum", "title": "Dim Sum"}], "rating": 4.5, "coordinates": {"latitude": 37.6519788278094, "longitude": -122.467947606607}, "transactions": ["restaurant_reservation"], "price": "$$$", "location": {"address1": "950 King Dr", "address2": "Ste 109", "address3": "", "city": "Daly City", "zip_code": "94015", "country": "US", "state": "CA", "display_address": ["950 King Dr", "Ste 109", "Daly City, CA 94015"]}, "phone": "+16504105118", "display_phone": "(650) 410-5118", "distance": 3999.1643985823525}, {"id": "gXY-VdMpB3Fh4WXyulc9kQ", "alias": "fresh-elements-daly-city", "name": "Fresh Elements", "image_url": "https://s3-media1.fl.yelpcdn.com/bphoto/cVfILBx21qpknSQMY81OIQ/o.jpg", "is_closed": false, "url": "https://www.yelp.com/biz/fresh-elements-daly-city?adjust_creative=ouh4IKbijqzYfWjVqQPRnA&utm_campaign=yelp_api_v3&utm_medium=api_v3_business_search&utm_source=ouh4IKbijqzYfWjVqQPRnA", "review_count": 533, "categories": [{"alias": "seafood", "title": "Seafood"}, {"alias": "hotpot", "title": "Hot Pot"}, {"alias": "chinese", "title": "Chinese"}], "rating": 4.0, "coordinates": {"latitude": 37.6821943283369, "longitude": -122.487302161753}, "transactions": [], "price": "$$$", "location": {"address1": "83 Skyline Plz", "address2": "", "address3": "", "city": "Daly City", "zip_code": "94015", "country": "US", "state": "CA", "display_address": ["83 Skyline Plz", "Daly City, CA 94015"]}, "phone": "+16507563600", "display_phone": "(650) 756-3600", "distance": 1633.2152397551577}, {"id": "7DhNUWPZqt43Y0975s8RSw", "alias": "hanato-ramen-daly-city-2", "name": "Hanato Ramen", "image_url": "https://s3-media2.fl.yelpcdn.com/bphoto/66UyT2Fq3WScnakfXQfcPg/o.jpg", "is_closed": false, "url": "https://www.yelp.com/biz/hanato-ramen-daly-city-2?adjust_creative=ouh4IKbijqzYfWjVqQPRnA&utm_campaign=yelp_api_v3&utm_medium=api_v3_business_search&utm_source=ouh4IKbijqzYfWjVqQPRnA", "review_count": 24, "categories": [{"alias": "ramen", "title": "Ramen"}, {"alias": "chinese", "title": "Chinese"}], "rating": 4.0, "coordinates": {"latitude": 37.699218, "longitude": -122.463676}, "transactions": [], "location": {"address1": "6811 Mission St", "address2": "", "address3": null, "city": "Daly City", "zip_code": "94014", "country": "US", "state": "CA", "display_address": ["6811 Mission St", "Daly City, CA 94014"]}, "phone": "+14153477281", "display_phone": "(415) 347-7281", "distance": 1379.184590334109}, {"id": "Su5SW95ywRVbs2PVJqR3tw", "alias": "chef-yu-chinese-cuisine-san-francisco", "name": "Chef Yu Chinese Cuisine", "image_url": "https://s3-media2.fl.yelpcdn.com/bphoto/G5KUKCSG813ycptBGpU40g/o.jpg", "is_closed": false, "url": "https://www.yelp.com/biz/chef-yu-chinese-cuisine-san-francisco?adjust_creative=ouh4IKbijqzYfWjVqQPRnA&utm_campaign=yelp_api_v3&utm_medium=api_v3_business_search&utm_source=ouh4IKbijqzYfWjVqQPRnA", "review_count": 17, "categories": [{"alias": "chinese", "title": "Chinese"}], "rating": 4.0, "coordinates": {"latitude": 37.725475, "longitude": -122.433948}, "transactions": [], "location": {"address1": "4543 Mission St", "address2": null, "address3": "", "city": "San Francisco", "zip_code": "94112", "country": "US", "state": "CA", "display_address": ["4543 Mission St", "San Francisco, CA 94112"]}, "phone": "+14153477263", "display_phone": "(415) 347-7263", "distance": 5254.61178934968}, {"id": "M0JTO3oyu6gxh1mfFjU-dA", "alias": "san-tung-san-francisco-2", "name": "San Tung", "image_url": "https://s3-media4.fl.yelpcdn.com/bphoto/LTtoZ25m8FX1UV37asnTCw/o.jpg", "is_closed": false, "url": "https://www.yelp.com/biz/san-tung-san-francisco-2?adjust_creative=ouh4IKbijqzYfWjVqQPRnA&utm_campaign=yelp_api_v3&utm_medium=api_v3_business_search&utm_source=ouh4IKbijqzYfWjVqQPRnA", "review_count": 6755, "categories": [{"alias": "chinese", "title": "Chinese"}, {"alias": "chicken_wings", "title": "Chicken Wings"}, {"alias": "noodles", "title": "Noodles"}], "rating": 4.0, "coordinates": {"latitude": 37.763693, "longitude": -122.469008}, "transactions": [], "price": "$$", "location": {"address1": "1031 Irving St", "address2": "", "address3": "", "city": "San Francisco", "zip_code": "94122", "country": "US", "state": "CA", "display_address": ["1031 Irving St", "San Francisco, CA 94122"]}, "phone": "+14152420828", "display_phone": "(415) 242-0828", "distance": 8430.413238194986}, {"id": "kKm6pi-NazSJArAyVNH7RA", "alias": "noodle-station-daly-city", "name": "Noodle Station", "image_url": "https://s3-media1.fl.yelpcdn.com/bphoto/xeGGXcCPasUC3PvPVUx3uA/o.jpg", "is_closed": false, "url": "https://www.yelp.com/biz/noodle-station-daly-city?adjust_creative=ouh4IKbijqzYfWjVqQPRnA&utm_campaign=yelp_api_v3&utm_medium=api_v3_business_search&utm_source=ouh4IKbijqzYfWjVqQPRnA", "review_count": 97, "categories": [{"alias": "asianfusion", "title": "Asian Fusion"}, {"alias": "noodles", "title": "Noodles"}], "rating": 4.0, "coordinates": {"latitude": 37.70749, "longitude": -122.45575}, "transactions": ["pickup", "delivery"], "price": "$$", "location": {"address1": "6055 Mission St", "address2": null, "address3": "", "city": "Daly City", "zip_code": "94014", "country": "US", "state": "CA", "display_address": ["6055 Mission St", "Daly City, CA 94014"]}, "phone": "+14153333888", "display_phone": "(415) 333-3888", "distance": 2522.335422769178}, {"id": "XhbkZ-5nUJ3bRy7uKPx7iQ", "alias": "mr-szechuan-san-francisco", "name": "Mr Szechuan", "image_url": "https://s3-media3.fl.yelpcdn.com/bphoto/lFs0UWLYhefpDnmKRWTOAQ/o.jpg", "is_closed": false, "url": "https://www.yelp.com/biz/mr-szechuan-san-francisco?adjust_creative=ouh4IKbijqzYfWjVqQPRnA&utm_campaign=yelp_api_v3&utm_medium=api_v3_business_search&utm_source=ouh4IKbijqzYfWjVqQPRnA", "review_count": 200, "categories": [{"alias": "chinese", "title": "Chinese"}, {"alias": "bubbletea", "title": "Bubble Tea"}, {"alias": "shavedice", "title": "Shaved Ice"}], "rating": 4.5, "coordinates": {"latitude": 37.74331, "longitude": -122.47544}, "transactions": ["pickup", "restaurant_reservation", "delivery"], "price": "$$", "location": {"address1": "890 Taraval St", "address2": null, "address3": "", "city": "San Francisco", "zip_code": "94116", "country": "US", "state": "CA", "display_address": ["890 Taraval St", "San Francisco, CA 94116"]}, "phone": "+14157538788", "display_phone": "(415) 753-8788", "distance": 6172.553162841643}, {"id": "wk1R0R2atEs9w4jgeibWqg", "alias": "rice-n-roll-pacifica", "name": "Rice N Roll", "image_url": "https://s3-media2.fl.yelpcdn.com/bphoto/EluV3JqUqd6liH4QrhFkOQ/o.jpg", "is_closed": false, "url": "https://www.yelp.com/biz/rice-n-roll-pacifica?adjust_creative=ouh4IKbijqzYfWjVqQPRnA&utm_campaign=yelp_api_v3&utm_medium=api_v3_business_search&utm_source=ouh4IKbijqzYfWjVqQPRnA", "review_count": 672, "categories": [{"alias": "chinese", "title": "Chinese"}, {"alias": "vegetarian", "title": "Vegetarian"}], "rating": 4.0, "coordinates": {"latitude": 37.6460435, "longitude": -122.4716853}, "transactions": ["pickup", "delivery"], "price": "$$", "location": {"address1": "683 Manor Dr", "address2": null, "address3": "", "city": "Pacifica", "zip_code": "94044", "country": "US", "state": "CA", "display_address": ["683 Manor Dr", "Pacifica, CA 94044"]}, "phone": "+16507380218", "display_phone": "(650) 738-0218", "distance": 4650.723875912054}, {"id": "YzbLdeRILc2xUIOHUdqc_Q", "alias": "fung-wong-chinese-restaurant-daly-city", "name": "Fung Wong Chinese Restaurant", "image_url": "https://s3-media1.fl.yelpcdn.com/bphoto/wKz74lbHdSUbPz_g-MQ47A/o.jpg", "is_closed": false, "url": "https://www.yelp.com/biz/fung-wong-chinese-restaurant-daly-city?adjust_creative=ouh4IKbijqzYfWjVqQPRnA&utm_campaign=yelp_api_v3&utm_medium=api_v3_business_search&utm_source=ouh4IKbijqzYfWjVqQPRnA", "review_count": 257, "categories": [{"alias": "chinese", "title": "Chinese"}], "rating": 2.5, "coordinates": {"latitude": 37.6634195214674, "longitude": -122.468605624468}, "transactions": ["pickup", "delivery"], "price": "$$", "location": {"address1": "427 Gellert Blvd", "address2": "", "address3": "", "city": "Daly City", "zip_code": "94015", "country": "US", "state": "CA", "display_address": ["427 Gellert Blvd", "Daly City, CA 94015"]}, "phone": "+16508788888", "display_phone": "(650) 878-8888", "distance": 2725.7161862021235}, {"id": "l62wQaLtnNZK0awXmxmJgQ", "alias": "mission-asia-noodle-san-francisco", "name": "Mission Asia Noodle", "image_url": "https://s3-media1.fl.yelpcdn.com/bphoto/_mnR3zYaiXKMjgrEezrT9w/o.jpg", "is_closed": false, "url": "https://www.yelp.com/biz/mission-asia-noodle-san-francisco?adjust_creative=ouh4IKbijqzYfWjVqQPRnA&utm_campaign=yelp_api_v3&utm_medium=api_v3_business_search&utm_source=ouh4IKbijqzYfWjVqQPRnA", "review_count": 97, "categories": [{"alias": "vietnamese", "title": "Vietnamese"}, {"alias": "chinese", "title": "Chinese"}, {"alias": "noodles", "title": "Noodles"}], "rating": 4.5, "coordinates": {"latitude": 37.71467, "longitude": -122.4423}, "transactions": ["pickup", "delivery"], "price": "$$", "location": {"address1": "5249 Mission St", "address2": "", "address3": null, "city": "San Francisco", "zip_code": "94112", "country": "US", "state": "CA", "display_address": ["5249 Mission St", "San Francisco, CA 94112"]}, "phone": "+14153332318", "display_phone": "(415) 333-2318", "distance": 3855.319526370335}, {"id": "WKtGwSIbpCE7g_8QG2slZw", "alias": "cafe-colma-colma", "name": "Cafe Colma", "image_url": "https://s3-media2.fl.yelpcdn.com/bphoto/i9TcroOjOTJnHCeBF1rC7w/o.jpg", "is_closed": false, "url": "https://www.yelp.com/biz/cafe-colma-colma?adjust_creative=ouh4IKbijqzYfWjVqQPRnA&utm_campaign=yelp_api_v3&utm_medium=api_v3_business_search&utm_source=ouh4IKbijqzYfWjVqQPRnA", "review_count": 362, "categories": [{"alias": "filipino", "title": "Filipino"}, {"alias": "chinese", "title": "Chinese"}, {"alias": "tradamerican", "title": "American (Traditional)"}], "rating": 3.5, "coordinates": {"latitude": 37.6799, "longitude": -122.45259}, "transactions": [], "price": "$$", "location": {"address1": "1700 Hillside Blvd", "address2": "", "address3": "", "city": "Colma", "zip_code": "94014", "country": "US", "state": "CA", "display_address": ["1700 Hillside Blvd", "Colma, CA 94014"]}, "phone": "+16507582237", "display_phone": "(650) 758-2237", "distance": 1784.0603459301583}, {"id": "xusFBl0gw2KBsLFV4Rkjdw", "alias": "j-and-a-restaurant-san-francisco", "name": "J & A Restaurant", "image_url": "https://s3-media4.fl.yelpcdn.com/bphoto/z7sN-CWMReuzoh9ra5zGKA/o.jpg", "is_closed": false, "url": "https://www.yelp.com/biz/j-and-a-restaurant-san-francisco?adjust_creative=ouh4IKbijqzYfWjVqQPRnA&utm_campaign=yelp_api_v3&utm_medium=api_v3_business_search&utm_source=ouh4IKbijqzYfWjVqQPRnA", "review_count": 121, "categories": [{"alias": "chinese", "title": "Chinese"}], "rating": 4.0, "coordinates": {"latitude": 37.710037, "longitude": -122.449872}, "transactions": ["pickup", "delivery"], "price": "$", "location": {"address1": "5712 Mission St", "address2": "", "address3": "", "city": "San Francisco", "zip_code": "94112", "country": "US", "state": "CA", "display_address": ["5712 Mission St", "San Francisco, CA 94112"]}, "phone": "+14153376688", "display_phone": "(415) 337-6688", "distance": 3042.6538544454215}, {"id": "BI40rGhpngLNPacrjWpseQ", "alias": "dumpling-kitchen-san-francisco", "name": "Dumpling Kitchen", "image_url": "https://s3-media2.fl.yelpcdn.com/bphoto/6y5BHK9dSB2eQro4s27y-w/o.jpg", "is_closed": false, "url": "https://www.yelp.com/biz/dumpling-kitchen-san-francisco?adjust_creative=ouh4IKbijqzYfWjVqQPRnA&utm_campaign=yelp_api_v3&utm_medium=api_v3_business_search&utm_source=ouh4IKbijqzYfWjVqQPRnA", "review_count": 1488, "categories": [{"alias": "chinese", "title": "Chinese"}], "rating": 4.0, "coordinates": {"latitude": 37.7423, "longitude": -122.48701}, "transactions": ["pickup", "delivery"], "price": "$$", "location": {"address1": "1935 Taraval St", "address2": "", "address3": "", "city": "San Francisco", "zip_code": "94116", "country": "US", "state": "CA", "display_address": ["1935 Taraval St", "San Francisco, CA 94116"]}, "phone": "+14156828938", "display_phone": "(415) 682-8938", "distance": 6232.199280082674}, {"id": "uGOjs8jafhfsFKvziH71CA", "alias": "andys-chinese-restaurant-south-san-francisco", "name": "Andy's Chinese Restaurant", "image_url": "https://s3-media3.fl.yelpcdn.com/bphoto/ZoiGTYKXomGvXKRjpBhr1A/o.jpg", "is_closed": false, "url": "https://www.yelp.com/biz/andys-chinese-restaurant-south-san-francisco?adjust_creative=ouh4IKbijqzYfWjVqQPRnA&utm_campaign=yelp_api_v3&utm_medium=api_v3_business_search&utm_source=ouh4IKbijqzYfWjVqQPRnA", "review_count": 288, "categories": [{"alias": "chinese", "title": "Chinese"}], "rating": 3.0, "coordinates": {"latitude": 37.6655131808481, "longitude": -122.452086877431}, "transactions": [], "price": "$$", "location": {"address1": "121 Hickey Blvd", "address2": "", "address3": "", "city": "South San Francisco", "zip_code": "94080", "country": "US", "state": "CA", "display_address": ["121 Hickey Blvd", "South San Francisco, CA 94080"]}, "phone": "+16509947681", "display_phone": "(650) 994-7681", "distance": 2955.965817133434}, {"id": "zsBCkBlCp-anXtyC5NcNTg", "alias": "boiling-beijing-san-bruno-5", "name": "Boiling BeiJing", "image_url": "https://s3-media2.fl.yelpcdn.com/bphoto/UgsMngV5b23eSXvp5Gbi0A/o.jpg", "is_closed": false, "url": "https://www.yelp.com/biz/boiling-beijing-san-bruno-5?adjust_creative=ouh4IKbijqzYfWjVqQPRnA&utm_campaign=yelp_api_v3&utm_medium=api_v3_business_search&utm_source=ouh4IKbijqzYfWjVqQPRnA", "review_count": 515, "categories": [{"alias": "chinese", "title": "Chinese"}, {"alias": "hotpot", "title": "Hot Pot"}, {"alias": "karaoke", "title": "Karaoke"}], "rating": 4.0, "coordinates": {"latitude": 37.62741, "longitude": -122.41154}, "transactions": ["pickup", "delivery"], "price": "$$", "location": {"address1": "649 San Mateo Ave", "address2": "", "address3": "", "city": "San Bruno", "zip_code": "94066", "country": "US", "state": "CA", "display_address": ["649 San Mateo Ave", "San Bruno, CA 94066"]}, "phone": "+16509523388", "display_phone": "(650) 952-3388", "distance": 8476.57779167006}, {"id": "tcE3hmwpnC4bd0_MuhqRWQ", "alias": "sky-dragon-restaurant-south-san-francisco", "name": "Sky Dragon Restaurant", "image_url": "https://s3-media2.fl.yelpcdn.com/bphoto/mTSrgJUAZGb910bCvGjvJA/o.jpg", "is_closed": false, "url": "https://www.yelp.com/biz/sky-dragon-restaurant-south-san-francisco?adjust_creative=ouh4IKbijqzYfWjVqQPRnA&utm_campaign=yelp_api_v3&utm_medium=api_v3_business_search&utm_source=ouh4IKbijqzYfWjVqQPRnA", "review_count": 274, "categories": [{"alias": "chinese", "title": "Chinese"}], "rating": 4.0, "coordinates": {"latitude": 37.649576, "longitude": -122.4306923}, "transactions": [], "price": "$", "location": {"address1": "117 Southwood Ctr", "address2": "", "address3": "", "city": "South San Francisco", "zip_code": "94080", "country": "US", "state": "CA", "display_address": ["117 Southwood Ctr", "South San Francisco, CA 94080"]}, "phone": "+16505837094", "display_phone": "(650) 583-7094", "distance": 5501.452119063832}, {"id": "O0t_lz75ZnTD50n09UhdGA", "alias": "porridge-king-daly-city", "name": "Porridge King", "image_url": "https://s3-media1.fl.yelpcdn.com/bphoto/VHXP9-cF2gUdGvqwZsvOTg/o.jpg", "is_closed": false, "url": "https://www.yelp.com/biz/porridge-king-daly-city?adjust_creative=ouh4IKbijqzYfWjVqQPRnA&utm_campaign=yelp_api_v3&utm_medium=api_v3_business_search&utm_source=ouh4IKbijqzYfWjVqQPRnA", "review_count": 554, "categories": [{"alias": "cantonese", "title": "Cantonese"}, {"alias": "seafood", "title": "Seafood"}], "rating": 2.5, "coordinates": {"latitude": 37.6823304443601, "longitude": -122.48756104752}, "transactions": [], "price": "$", "location": {"address1": "55 Skyline Plz", "address2": "", "address3": "", "city": "Daly City", "zip_code": "94015", "country": "US", "state": "CA", "display_address": ["55 Skyline Plz", "Daly City, CA 94015"]}, "phone": "+16509944538", "display_phone": "(650) 994-4538", "distance": 1626.8700931895223}, {"id": "FhPbn34bMq1dw9YcNWYWAg", "alias": "gateway-kitchen-daly-city", "name": "Gateway Kitchen", "image_url": "https://s3-media2.fl.yelpcdn.com/bphoto/hqvtJajnN7RcDMoFucOPAw/o.jpg", "is_closed": false, "url": "https://www.yelp.com/biz/gateway-kitchen-daly-city?adjust_creative=ouh4IKbijqzYfWjVqQPRnA&utm_campaign=yelp_api_v3&utm_medium=api_v3_business_search&utm_source=ouh4IKbijqzYfWjVqQPRnA", "review_count": 312, "categories": [{"alias": "filipino", "title": "Filipino"}, {"alias": "chinese", "title": "Chinese"}, {"alias": "breakfast_brunch", "title": "Breakfast & Brunch"}], "rating": 4.5, "coordinates": {"latitude": 37.7068693, "longitude": -122.4579278}, "transactions": [], "price": "$", "location": {"address1": "6165 Mission St", "address2": "", "address3": "", "city": "Daly City", "zip_code": "94014", "country": "US", "state": "CA", "display_address": ["6165 Mission St", "Daly City, CA 94014"]}, "phone": "+14152398371", "display_phone": "(415) 239-8371", "distance": 2364.3150932001963}, {"id": "fo1k7MGgo1rmhc8ox8z9ow", "alias": "little-hunan-restaurant-daly-city", "name": "Little Hunan Restaurant", "image_url": "https://s3-media1.fl.yelpcdn.com/bphoto/YORqck2wRpGE7IMXOPGYgg/o.jpg", "is_closed": false, "url": "https://www.yelp.com/biz/little-hunan-restaurant-daly-city?adjust_creative=ouh4IKbijqzYfWjVqQPRnA&utm_campaign=yelp_api_v3&utm_medium=api_v3_business_search&utm_source=ouh4IKbijqzYfWjVqQPRnA", "review_count": 109, "categories": [{"alias": "chinese", "title": "Chinese"}], "rating": 3.5, "coordinates": {"latitude": 37.7069969177246, "longitude": -122.457214355469}, "transactions": [], "price": "$", "location": {"address1": "6127 Mission St", "address2": "", "address3": "", "city": "Daly City", "zip_code": "94014", "country": "US", "state": "CA", "display_address": ["6127 Mission St", "Daly City, CA 94014"]}, "phone": "+14153333887", "display_phone": "(415) 333-3887", "distance": 2412.5108546705737}, {"id": "sAh7HSFXR9qnuH3kT3koeQ", "alias": "cheung-hing-san-francisco", "name": "Cheung Hing", "image_url": "https://s3-media3.fl.yelpcdn.com/bphoto/KClwiNTv2PiuHg-qKgvRJw/o.jpg", "is_closed": false, "url": "https://www.yelp.com/biz/cheung-hing-san-francisco?adjust_creative=ouh4IKbijqzYfWjVqQPRnA&utm_campaign=yelp_api_v3&utm_medium=api_v3_business_search&utm_source=ouh4IKbijqzYfWjVqQPRnA", "review_count": 648, "categories": [{"alias": "chinese", "title": "Chinese"}, {"alias": "bbq", "title": "Barbeque"}], "rating": 4.0, "coordinates": {"latitude": 37.75343, "longitude": -122.48892}, "transactions": [], "price": "$", "location": {"address1": "2339 Noriega St", "address2": "", "address3": "", "city": "San Francisco", "zip_code": "94122", "country": "US", "state": "CA", "display_address": ["2339 Noriega St", "San Francisco, CA 94122"]}, "phone": "+14156653271", "display_phone": "(415) 665-3271", "distance": 7483.403571600006}, {"id": "cBTzK6nOOEIt_In98CF0fA", "alias": "na-nas-kitchen-brisbane", "name": "Na Na's Kitchen", "image_url": "https://s3-media4.fl.yelpcdn.com/bphoto/WbtYxGibh54BOsx9Gz7oSQ/o.jpg", "is_closed": false, "url": "https://www.yelp.com/biz/na-nas-kitchen-brisbane?adjust_creative=ouh4IKbijqzYfWjVqQPRnA&utm_campaign=yelp_api_v3&utm_medium=api_v3_business_search&utm_source=ouh4IKbijqzYfWjVqQPRnA", "review_count": 166, "categories": [{"alias": "chinese", "title": "Chinese"}, {"alias": "asianfusion", "title": "Asian Fusion"}], "rating": 4.0, "coordinates": {"latitude": 37.68218, "longitude": -122.40344}, "transactions": ["pickup"], "price": "$$", "location": {"address1": "301 Visitacion Ave", "address2": "", "address3": "", "city": "Brisbane", "zip_code": "94005", "country": "US", "state": "CA", "display_address": ["301 Visitacion Ave", "Brisbane, CA 94005"]}, "phone": "+14154675370", "display_phone": "(415) 467-5370", "distance": 5896.6835099640275}, {"id": "c0XpNU_OSP3YfQnMYgxZTg", "alias": "maple-restaurant-san-francisco", "name": "Maple Restaurant", "image_url": "https://s3-media2.fl.yelpcdn.com/bphoto/BcnahQxZYERxJRJthgbhYA/o.jpg", "is_closed": false, "url": "https://www.yelp.com/biz/maple-restaurant-san-francisco?adjust_creative=ouh4IKbijqzYfWjVqQPRnA&utm_campaign=yelp_api_v3&utm_medium=api_v3_business_search&utm_source=ouh4IKbijqzYfWjVqQPRnA", "review_count": 89, "categories": [{"alias": "chinese", "title": "Chinese"}], "rating": 4.0, "coordinates": {"latitude": 37.709339, "longitude": -122.451896}, "transactions": ["pickup", "delivery"], "price": "$$", "location": {"address1": "5820 Mission St", "address2": null, "address3": "", "city": "San Francisco", "zip_code": "94112", "country": "US", "state": "CA", "display_address": ["5820 Mission St", "San Francisco, CA 94112"]}, "phone": "+14153337869", "display_phone": "(415) 333-7869", "distance": 2877.2364987824603}, {"id": "qVCckGPfp66H3RlpE2DTKA", "alias": "tai-yuan-seafood-restaurant-daly-city-3", "name": "Tai Yuan Seafood Restaurant", "image_url": "https://s3-media1.fl.yelpcdn.com/bphoto/Ks5r1ztXInigosaYP46teA/o.jpg", "is_closed": false, "url": "https://www.yelp.com/biz/tai-yuan-seafood-restaurant-daly-city-3?adjust_creative=ouh4IKbijqzYfWjVqQPRnA&utm_campaign=yelp_api_v3&utm_medium=api_v3_business_search&utm_source=ouh4IKbijqzYfWjVqQPRnA", "review_count": 203, "categories": [{"alias": "seafood", "title": "Seafood"}, {"alias": "dimsum", "title": "Dim Sum"}, {"alias": "cantonese", "title": "Cantonese"}], "rating": 3.5, "coordinates": {"latitude": 37.6511953103314, "longitude": -122.468651521426}, "transactions": [], "price": "$$", "location": {"address1": "950 King Dr", "address2": "Ste 100", "address3": "King Plaza Shopping Ctr", "city": "Daly City", "zip_code": "94015", "country": "US", "state": "CA", "display_address": ["950 King Dr", "Ste 100", "King Plaza Shopping Ctr", "Daly City, CA 94015"]}, "phone": "+16508788833", "display_phone": "(650) 878-8833", "distance": 4083.645726942761}, {"id": "Ws0RhWUoZcbvqD--Qrp57w", "alias": "e-plus-restaurant-south-san-francisco-3", "name": "E Plus Restaurant", "image_url": "https://s3-media3.fl.yelpcdn.com/bphoto/Tl72NkX1V6W6aKZtP5gX7w/o.jpg", "is_closed": false, "url": "https://www.yelp.com/biz/e-plus-restaurant-south-san-francisco-3?adjust_creative=ouh4IKbijqzYfWjVqQPRnA&utm_campaign=yelp_api_v3&utm_medium=api_v3_business_search&utm_source=ouh4IKbijqzYfWjVqQPRnA", "review_count": 1, "categories": [{"alias": "hkcafe", "title": "Hong Kong Style Cafe"}, {"alias": "asianfusion", "title": "Asian Fusion"}, {"alias": "chinese", "title": "Chinese"}], "rating": 5.0, "coordinates": {"latitude": 37.63997, "longitude": -122.402121}, "transactions": [], "location": {"address1": "490 A S Airport Blvd", "address2": "Ste A", "address3": "", "city": "South San Francisco", "zip_code": "94080", "country": "US", "state": "CA", "display_address": ["490 A S Airport Blvd", "Ste A", "South San Francisco, CA 94080"]}, "phone": "+16508716688", "display_phone": "(650) 871-6688", "distance": 7997.227700418813}, {"id": "pbewJlFCMZBWaznZ_CNn1Q", "alias": "chopstix-daly-city", "name": "Chopstix", "image_url": "https://s3-media3.fl.yelpcdn.com/bphoto/xSuj7ZEmxSSR8mKAmDKLQA/o.jpg", "is_closed": false, "url": "https://www.yelp.com/biz/chopstix-daly-city?adjust_creative=ouh4IKbijqzYfWjVqQPRnA&utm_campaign=yelp_api_v3&utm_medium=api_v3_business_search&utm_source=ouh4IKbijqzYfWjVqQPRnA", "review_count": 188, "categories": [{"alias": "chinese", "title": "Chinese"}, {"alias": "japanese", "title": "Japanese"}], "rating": 3.0, "coordinates": {"latitude": 37.6982345581055, "longitude": -122.464530944824}, "transactions": ["pickup", "delivery"], "price": "$$", "location": {"address1": "6860 Mission St", "address2": "", "address3": "", "city": "Daly City", "zip_code": "94014", "country": "US", "state": "CA", "display_address": ["6860 Mission St", "Daly City, CA 94014"]}, "phone": "+16509928889", "display_phone": "(650) 992-8889", "distance": 1254.3575030881073}, {"id": "DQy0uYB0kym-s3oZZRxs5Q", "alias": "house-of-pancakes-san-francisco", "name": "House Of Pancakes", "image_url": "https://s3-media3.fl.yelpcdn.com/bphoto/VCnTMGbTTPCH3nXWM-RqxQ/o.jpg", "is_closed": false, "url": "https://www.yelp.com/biz/house-of-pancakes-san-francisco?adjust_creative=ouh4IKbijqzYfWjVqQPRnA&utm_campaign=yelp_api_v3&utm_medium=api_v3_business_search&utm_source=ouh4IKbijqzYfWjVqQPRnA", "review_count": 952, "categories": [{"alias": "chinese", "title": "Chinese"}, {"alias": "noodles", "title": "Noodles"}, {"alias": "taiwanese", "title": "Taiwanese"}], "rating": 4.0, "coordinates": {"latitude": 37.742904, "longitude": -122.476349}, "transactions": [], "price": "$", "location": {"address1": "937 Taraval St", "address2": "", "address3": "", "city": "San Francisco", "zip_code": "94116", "country": "US", "state": "CA", "display_address": ["937 Taraval St", "San Francisco, CA 94116"]}, "phone": "+14156818388", "display_phone": "(415) 681-8388", "distance": 6140.028299287081}, {"id": "MpwQAOTvW4MLE_smNHZxxw", "alias": "earl-spicy-millbrae-4", "name": "Earl Spicy", "image_url": "https://s3-media2.fl.yelpcdn.com/bphoto/DDFV8yBw4dXjnFOxp-nLIA/o.jpg", "is_closed": false, "url": "https://www.yelp.com/biz/earl-spicy-millbrae-4?adjust_creative=ouh4IKbijqzYfWjVqQPRnA&utm_campaign=yelp_api_v3&utm_medium=api_v3_business_search&utm_source=ouh4IKbijqzYfWjVqQPRnA", "review_count": 186, "categories": [{"alias": "szechuan", "title": "Szechuan"}, {"alias": "hotpot", "title": "Hot Pot"}], "rating": 4.5, "coordinates": {"latitude": 37.61414, "longitude": -122.40569}, "transactions": ["pickup", "restaurant_reservation", "delivery"], "price": "$$", "location": {"address1": "1711 El Camino Real", "address2": null, "address3": "", "city": "Millbrae", "zip_code": "94030", "country": "US", "state": "CA", "display_address": ["1711 El Camino Real", "Millbrae, CA 94030"]}, "phone": "+16508696222", "display_phone": "(650) 869-6222", "distance": 9988.333001577028}, {"id": "GrawU-e5_s99My8-DaajxQ", "alias": "joyful-kitchen-san-francisco-4", "name": "Joyful Kitchen", "image_url": "https://s3-media4.fl.yelpcdn.com/bphoto/S1zjm0GKWB6plfeQtSxL0Q/o.jpg", "is_closed": false, "url": "https://www.yelp.com/biz/joyful-kitchen-san-francisco-4?adjust_creative=ouh4IKbijqzYfWjVqQPRnA&utm_campaign=yelp_api_v3&utm_medium=api_v3_business_search&utm_source=ouh4IKbijqzYfWjVqQPRnA", "review_count": 128, "categories": [{"alias": "chinese", "title": "Chinese"}], "rating": 3.0, "coordinates": {"latitude": 37.725246, "longitude": -122.462876}, "transactions": ["pickup", "delivery"], "price": "$", "location": {"address1": "1919 Ocean Ave", "address2": "", "address3": null, "city": "San Francisco", "zip_code": "94127", "country": "US", "state": "CA", "display_address": ["1919 Ocean Ave", "San Francisco, CA 94127"]}, "phone": "+14152392388", "display_phone": "(415) 239-2388", "distance": 4202.367577470543}, {"id": "BasvZckQij5ipgtVxM9wng", "alias": "tc-pastry-daly-city", "name": "TC Pastry", "image_url": "https://s3-media3.fl.yelpcdn.com/bphoto/u2fjyerUSKEc-Ud14sHCeg/o.jpg", "is_closed": false, "url": "https://www.yelp.com/biz/tc-pastry-daly-city?adjust_creative=ouh4IKbijqzYfWjVqQPRnA&utm_campaign=yelp_api_v3&utm_medium=api_v3_business_search&utm_source=ouh4IKbijqzYfWjVqQPRnA", "review_count": 286, "categories": [{"alias": "dimsum", "title": "Dim Sum"}, {"alias": "desserts", "title": "Desserts"}], "rating": 3.5, "coordinates": {"latitude": 37.6744097789988, "longitude": -122.47948278455}, "transactions": [], "price": "$", "location": {"address1": "67 St Francis Sq", "address2": "", "address3": "", "city": "Daly City", "zip_code": "94015", "country": "US", "state": "CA", "display_address": ["67 St Francis Sq", "Daly City, CA 94015"]}, "phone": "+16507558612", "display_phone": "(650) 755-8612", "distance": 1708.058413518586}, {"id": "oeaM1vbqnJ73eTqHNHgcjw", "alias": "wang-wah-san-francisco-2", "name": "Wang Wah", "image_url": "https://s3-media1.fl.yelpcdn.com/bphoto/64cosSiLlYs1j0IUezIKjQ/o.jpg", "is_closed": false, "url": "https://www.yelp.com/biz/wang-wah-san-francisco-2?adjust_creative=ouh4IKbijqzYfWjVqQPRnA&utm_campaign=yelp_api_v3&utm_medium=api_v3_business_search&utm_source=ouh4IKbijqzYfWjVqQPRnA", "review_count": 166, "categories": [{"alias": "chinese", "title": "Chinese"}], "rating": 4.0, "coordinates": {"latitude": 37.7248, "longitude": -122.45931}, "transactions": ["pickup"], "price": "$", "location": {"address1": "1612 Ocean Ave", "address2": "", "address3": "", "city": "San Francisco", "zip_code": "94112", "country": "US", "state": "CA", "display_address": ["1612 Ocean Ave", "San Francisco, CA 94112"]}, "phone": "+14155854953", "display_phone": "(415) 585-4953", "distance": 4204.821580051015}, {"id": "J5Hkb21HQMT8YfsbrpFxPw", "alias": "henrys-hunan-restaurant-san-francisco-6", "name": "Henry's Hunan Restaurant", "image_url": "https://s3-media2.fl.yelpcdn.com/bphoto/_g_XL3yeIDkpMhjAGx0Jmw/o.jpg", "is_closed": false, "url": "https://www.yelp.com/biz/henrys-hunan-restaurant-san-francisco-6?adjust_creative=ouh4IKbijqzYfWjVqQPRnA&utm_campaign=yelp_api_v3&utm_medium=api_v3_business_search&utm_source=ouh4IKbijqzYfWjVqQPRnA", "review_count": 239, "categories": [{"alias": "chinese", "title": "Chinese"}, {"alias": "seafood", "title": "Seafood"}, {"alias": "asianfusion", "title": "Asian Fusion"}], "rating": 4.0, "coordinates": {"latitude": 37.72211, "longitude": -122.4364}, "transactions": ["pickup", "delivery"], "price": "$$", "location": {"address1": "4753 Mission St", "address2": "", "address3": "", "city": "San Francisco", "zip_code": "94112", "country": "US", "state": "CA", "display_address": ["4753 Mission St", "San Francisco, CA 94112"]}, "phone": "+14155858838", "display_phone": "(415) 585-8838", "distance": 4827.226177934498}, {"id": "g60n9gcnr7cco5dh-j2RbA", "alias": "superstar-restaurant-san-francisco", "name": "Superstar Restaurant", "image_url": "https://s3-media2.fl.yelpcdn.com/bphoto/4pn0SnzZDKUKW_xODQtkHA/o.jpg", "is_closed": false, "url": "https://www.yelp.com/biz/superstar-restaurant-san-francisco?adjust_creative=ouh4IKbijqzYfWjVqQPRnA&utm_campaign=yelp_api_v3&utm_medium=api_v3_business_search&utm_source=ouh4IKbijqzYfWjVqQPRnA", "review_count": 410, "categories": [{"alias": "filipino", "title": "Filipino"}, {"alias": "chinese", "title": "Chinese"}], "rating": 4.5, "coordinates": {"latitude": 37.7195243835449, "longitude": -122.438331604004}, "transactions": ["pickup"], "price": "$", "location": {"address1": "4919 Mission St", "address2": "", "address3": "", "city": "San Francisco", "zip_code": "94112", "country": "US", "state": "CA", "display_address": ["4919 Mission St", "San Francisco, CA 94112"]}, "phone": "+14155854360", "display_phone": "(415) 585-4360", "distance": 4500.595272129066}, {"id": "cwm7FvtHKKeKoe1VPi5biQ", "alias": "grand-palace-restaurant-south-san-francisco", "name": "Grand Palace Restaurant", "image_url": "https://s3-media1.fl.yelpcdn.com/bphoto/3a2BZ_OYoefLTj0QbVamig/o.jpg", "is_closed": false, "url": "https://www.yelp.com/biz/grand-palace-restaurant-south-san-francisco?adjust_creative=ouh4IKbijqzYfWjVqQPRnA&utm_campaign=yelp_api_v3&utm_medium=api_v3_business_search&utm_source=ouh4IKbijqzYfWjVqQPRnA", "review_count": 725, "categories": [{"alias": "dimsum", "title": "Dim Sum"}, {"alias": "seafood", "title": "Seafood"}, {"alias": "cantonese", "title": "Cantonese"}], "rating": 3.5, "coordinates": {"latitude": 37.6549873625339, "longitude": -122.411623999303}, "transactions": ["pickup", "delivery"], "price": "$$", "location": {"address1": "359 Grand Ave", "address2": "", "address3": "", "city": "South San Francisco", "zip_code": "94080", "country": "US", "state": "CA", "display_address": ["359 Grand Ave", "South San Francisco, CA 94080"]}, "phone": "+16508721000", "display_phone": "(650) 872-1000", "distance": 6322.3938285964}, {"id": "8Ju63z-Yb5hlp1jn6qxEcw", "alias": "supreme-pot-daly-city", "name": "Supreme Pot", "image_url": "https://s3-media4.fl.yelpcdn.com/bphoto/FFP9yP4czTCWF9nCcI0Sjw/o.jpg", "is_closed": false, "url": "https://www.yelp.com/biz/supreme-pot-daly-city?adjust_creative=ouh4IKbijqzYfWjVqQPRnA&utm_campaign=yelp_api_v3&utm_medium=api_v3_business_search&utm_source=ouh4IKbijqzYfWjVqQPRnA", "review_count": 160, "categories": [{"alias": "hotpot", "title": "Hot Pot"}, {"alias": "karaoke", "title": "Karaoke"}], "rating": 3.5, "coordinates": {"latitude": 37.67489667, "longitude": -122.47882167}, "transactions": [], "price": "$$", "location": {"address1": "3 St Francis Square", "address2": null, "address3": "", "city": "Daly City", "zip_code": "94015", "country": "US", "state": "CA", "display_address": ["3 St Francis Square", "Daly City, CA 94015"]}, "phone": "+16509918888", "display_phone": "(650) 991-8888", "distance": 1631.9362456729834}, {"id": "xYEUC7yO_c95cOuv3DfxvA", "alias": "moonstar-buffet-daly-city-2", "name": "Moonstar Buffet", "image_url": "https://s3-media4.fl.yelpcdn.com/bphoto/Cx5cZUhGGZ_zHO0Qyfa5Ng/o.jpg", "is_closed": false, "url": "https://www.yelp.com/biz/moonstar-buffet-daly-city-2?adjust_creative=ouh4IKbijqzYfWjVqQPRnA&utm_campaign=yelp_api_v3&utm_medium=api_v3_business_search&utm_source=ouh4IKbijqzYfWjVqQPRnA", "review_count": 1223, "categories": [{"alias": "chinese", "title": "Chinese"}, {"alias": "buffets", "title": "Buffets"}, {"alias": "seafood", "title": "Seafood"}], "rating": 3.0, "coordinates": {"latitude": 37.664955, "longitude": -122.467583}, "transactions": [], "price": "$$", "location": {"address1": "383 Gellert Blvd", "address2": null, "address3": "", "city": "Daly City", "zip_code": "94015", "country": "US", "state": "CA", "display_address": ["383 Gellert Blvd", "Daly City, CA 94015"]}, "phone": "+16509922888", "display_phone": "(650) 992-2888", "distance": 2561.7392400975573}, {"id": "6t4B44c98PrJ6-TbCl21FQ", "alias": "mr-fong-bbq-and-noodles-daly-city", "name": "Mr. Fong BBQ & Noodles", "image_url": "https://s3-media3.fl.yelpcdn.com/bphoto/rr9c0TB_2rie4exQ54mIKw/o.jpg", "is_closed": false, "url": "https://www.yelp.com/biz/mr-fong-bbq-and-noodles-daly-city?adjust_creative=ouh4IKbijqzYfWjVqQPRnA&utm_campaign=yelp_api_v3&utm_medium=api_v3_business_search&utm_source=ouh4IKbijqzYfWjVqQPRnA", "review_count": 261, "categories": [{"alias": "chinese", "title": "Chinese"}, {"alias": "bbq", "title": "Barbeque"}, {"alias": "noodles", "title": "Noodles"}], "rating": 3.0, "coordinates": {"latitude": 37.651156, "longitude": -122.468479}, "transactions": [], "price": "$$", "location": {"address1": "950 King Dr", "address2": "Ste 101", "address3": "", "city": "Daly City", "zip_code": "94015", "country": "US", "state": "CA", "display_address": ["950 King Dr", "Ste 101", "Daly City, CA 94015"]}, "phone": "+16508788882", "display_phone": "(650) 878-8882", "distance": 4088.548810602935}, {"id": "gFDbwDqdzF2DfIoLE7WUxg", "alias": "joy-of-hunan-san-bruno-2", "name": "Joy of Hunan", "image_url": "https://s3-media3.fl.yelpcdn.com/bphoto/2T_0r0iXpd4OqJh_pWrpVA/o.jpg", "is_closed": false, "url": "https://www.yelp.com/biz/joy-of-hunan-san-bruno-2?adjust_creative=ouh4IKbijqzYfWjVqQPRnA&utm_campaign=yelp_api_v3&utm_medium=api_v3_business_search&utm_source=ouh4IKbijqzYfWjVqQPRnA", "review_count": 89, "categories": [{"alias": "chinese", "title": "Chinese"}], "rating": 4.0, "coordinates": {"latitude": 37.62601667, "longitude": -122.426685}, "transactions": ["pickup", "delivery"], "price": "$$", "location": {"address1": "851 Cherry Ave", "address2": "Ste 6", "address3": "", "city": "San Bruno", "zip_code": "94066", "country": "US", "state": "CA", "display_address": ["851 Cherry Ave", "Ste 6", "San Bruno, CA 94066"]}, "phone": "+16508732329", "display_phone": "(650) 873-2329", "distance": 7872.11557329637}, {"id": "hWFAUV2KtywQXwHFj5j9Lg", "alias": "ming-kee-restaurant-san-francisco-2", "name": "Ming Kee Restaurant", "image_url": "https://s3-media4.fl.yelpcdn.com/bphoto/qZwVcZ72yJFbjgByspeqUg/o.jpg", "is_closed": false, "url": "https://www.yelp.com/biz/ming-kee-restaurant-san-francisco-2?adjust_creative=ouh4IKbijqzYfWjVqQPRnA&utm_campaign=yelp_api_v3&utm_medium=api_v3_business_search&utm_source=ouh4IKbijqzYfWjVqQPRnA", "review_count": 129, "categories": [{"alias": "chinese", "title": "Chinese"}, {"alias": "delis", "title": "Delis"}], "rating": 4.0, "coordinates": {"latitude": 37.7247201, "longitude": -122.4590121}, "transactions": ["delivery"], "price": "$", "location": {"address1": "1548 Ocean Ave", "address2": "", "address3": "", "city": "San Francisco", "zip_code": "94112", "country": "US", "state": "CA", "display_address": ["1548 Ocean Ave", "San Francisco, CA 94112"]}, "phone": "+14153378198", "display_phone": "(415) 337-8198", "distance": 4210.844017789492}, {"id": "MxJe-uYezCVi2qHJ9rsolA", "alias": "pacific-restaurant-daly-city-2", "name": "Pacific Restaurant", "image_url": "https://s3-media1.fl.yelpcdn.com/bphoto/OxSB0ic9nKNrf-PuTbvVJw/o.jpg", "is_closed": false, "url": "https://www.yelp.com/biz/pacific-restaurant-daly-city-2?adjust_creative=ouh4IKbijqzYfWjVqQPRnA&utm_campaign=yelp_api_v3&utm_medium=api_v3_business_search&utm_source=ouh4IKbijqzYfWjVqQPRnA", "review_count": 120, "categories": [{"alias": "chinese", "title": "Chinese"}, {"alias": "buffets", "title": "Buffets"}, {"alias": "noodles", "title": "Noodles"}], "rating": 3.0, "coordinates": {"latitude": 37.70542, "longitude": -122.46237}, "transactions": [], "price": "$", "location": {"address1": "6356 Mission St", "address2": "", "address3": "", "city": "Daly City", "zip_code": "94014", "country": "US", "state": "CA", "display_address": ["6356 Mission St", "Daly City, CA 94014"]}, "phone": "+16509945058", "display_phone": "(650) 994-5058", "distance": 2066.8208641097326}, {"id": "HVWTTihhWfPsVwa3ZWu9jQ", "alias": "dumpling-empire-south-san-francisco", "name": "Dumpling Empire", "image_url": "https://s3-media2.fl.yelpcdn.com/bphoto/aWOn8C37lRHFCzKiO-U9bw/o.jpg", "is_closed": false, "url": "https://www.yelp.com/biz/dumpling-empire-south-san-francisco?adjust_creative=ouh4IKbijqzYfWjVqQPRnA&utm_campaign=yelp_api_v3&utm_medium=api_v3_business_search&utm_source=ouh4IKbijqzYfWjVqQPRnA", "review_count": 775, "categories": [{"alias": "chinese", "title": "Chinese"}], "rating": 3.5, "coordinates": {"latitude": 37.6543861, "longitude": -122.4086075}, "transactions": ["pickup", "delivery"], "price": "$$", "location": {"address1": "216 Cypress Ave", "address2": "", "address3": "", "city": "South San Francisco", "zip_code": "94080", "country": "US", "state": "CA", "display_address": ["216 Cypress Ave", "South San Francisco, CA 94080"]}, "phone": "+16507420838", "display_phone": "(650) 742-0838", "distance": 6574.588940269387}, {"id": "0J97f38Wtf3sOT71nh_Iaw", "alias": "xiao-loong-restaurant-san-francisco", "name": "Xiao Loong Restaurant", "image_url": "https://s3-media4.fl.yelpcdn.com/bphoto/_AoMgTcMuGp25UnRhvFNFg/o.jpg", "is_closed": false, "url": "https://www.yelp.com/biz/xiao-loong-restaurant-san-francisco?adjust_creative=ouh4IKbijqzYfWjVqQPRnA&utm_campaign=yelp_api_v3&utm_medium=api_v3_business_search&utm_source=ouh4IKbijqzYfWjVqQPRnA", "review_count": 275, "categories": [{"alias": "chinese", "title": "Chinese"}], "rating": 4.0, "coordinates": {"latitude": 37.7385499, "longitude": -122.46884}, "transactions": ["pickup", "delivery"], "price": "$$", "location": {"address1": "250 W Portal Ave", "address2": "", "address3": "", "city": "San Francisco", "zip_code": "94127", "country": "US", "state": "CA", "display_address": ["250 W Portal Ave", "San Francisco, CA 94127"]}, "phone": "+14157535678", "display_phone": "(415) 753-5678", "distance": 5630.831138305807}, {"id": "7UO9ZSGbm1X6GkezeJeyFg", "alias": "orchids-cafe-san-francisco-5", "name": "Orchids Cafe", "image_url": "https://s3-media2.fl.yelpcdn.com/bphoto/WV56DJArNWyI8zbOEitVjQ/o.jpg", "is_closed": false, "url": "https://www.yelp.com/biz/orchids-cafe-san-francisco-5?adjust_creative=ouh4IKbijqzYfWjVqQPRnA&utm_campaign=yelp_api_v3&utm_medium=api_v3_business_search&utm_source=ouh4IKbijqzYfWjVqQPRnA", "review_count": 121, "categories": [{"alias": "chinese", "title": "Chinese"}, {"alias": "hkcafe", "title": "Hong Kong Style Cafe"}], "rating": 4.0, "coordinates": {"latitude": 37.72311, "longitude": -122.45369}, "transactions": ["pickup", "delivery"], "price": "$$", "location": {"address1": "1031 Ocean Ave", "address2": "", "address3": null, "city": "San Francisco", "zip_code": "94112", "country": "US", "state": "CA", "display_address": ["1031 Ocean Ave", "San Francisco, CA 94112"]}, "phone": "+14153338668", "display_phone": "(415) 333-8668", "distance": 4176.317336076783}], "total": 341, "region": {"center": {"longitude": -122.4702, "latitude": 37.6879}}}